[{"place":{"lat":34.0326,"address":"1401 Montana Avenue","lng":-118.495125},"meta":{"name":"Peet's Coffee & Tea","details":"Coffee: $4<br>Mocha: $7"},"type":"cafe"},{"place":{"lat":34.019199,"address":"930 Broadway","lng":-118.4884838},"meta":{"name":"Funnel Mill Rare","details":"Coffee: $3<br>Mocha: $7"},"type":"cafe"},{"place":{"lat":34.0251998901,"address":"1725 Broadway","lng":-118.481002808},"meta":{"name":"18th Street Coffee House","details":"Coffee: $2<br>Mocha: $7"},"type":"cafe"},{"place":{"lat":34.009168,"address":"306 Pico Blvd","lng":-118.4877943},"meta":{"name":"Flying Saucers Caffeine and Art","details":"Coffee: $1<br>Mocha: $4"},"type":"cafe"},{"place":{"lat":33.9992868,"address":"2908 Main St","lng":-118.4810609},"meta":{"name":"Groundwork Coffee Co.","details":"Coffee: $1<br>Mocha: $5"},"type":"cafe"},{"place":{"lat":34.0287017822,"address":"925 Montana Ave","lng":-118.5},"meta":{"name":"Caffe Luxxe","details":"Coffee: $1<br>Mocha: $7"},"type":"cafe"},{"place":{"lat":33.9980518,"address":"3101 Main St","lng":-118.4795932},"meta":{"name":"Espresso Cielo","details":"Coffee: $2<br>Mocha: $2"},"type":"cafe"},{"place":{"lat":34.0268558,"address":"702 Montana Ave","lng":-118.5017326},"meta":{"name":"Primo Passo Coffee","details":"Coffee: $3<br>Mocha: $2"},"type":"cafe"},{"place":{"lat":34.0229988098,"address":"829 Wilshire Blvd","lng":-118.494003296},"meta":{"name":"The Coffee Bean & Tea Leaf","details":"Coffee: $3<br>Mocha: $7"},"type":"cafe"},{"place":{"lat":34.029331,"address":"2425 Colorado Ave, Ste B118","lng":-118.473237},"meta":{"name":"Brew Coffee Bar","details":"Coffee: $4<br>Mocha: $2"},"type":"cafe"},{"place":{"lat":34.0166865339,"address":"413 Santa Monica Blvd","lng":-118.495037556},"meta":{"name":"The Refinery","details":"Coffee: $3<br>Mocha: $3"},"type":"cafe"},{"place":{"lat":34.027043,"address":"3301 Pico Blvd","lng":-118.455616},"meta":{"name":"Unurban","details":"Coffee: $1<br>Mocha: $7"},"type":"cafe"},{"place":{"lat":34.047415,"address":"225 26th St","lng":-118.490682},"meta":{"name":"Caffe Luxxe","details":"Coffee: $1<br>Mocha: $2"},"type":"cafe"},{"place":{"lat":34.0156233,"address":"1434 4th St","lng":-118.4944065},"meta":{"name":"MoGo Coffee","details":"Coffee: $4<br>Mocha: $3"},"type":"cafe"},{"place":{"lat":33.99865,"address":"212 Pier Ave","lng":-118.479706},"meta":{"name":"212 Pier","details":"Coffee: $2<br>Mocha: $3"},"type":"cafe"},{"place":{"lat":34.0043601344,"address":"2327 Main St","lng":-118.485810757},"meta":{"name":"Urth Caffe","details":"Coffee: $2<br>Mocha: $5"},"type":"cafe"},{"place":{"lat":34.013063,"address":"1741 Ocean Park Blvd","lng":-118.465697},"meta":{"name":"Caf√© Bolivar","details":"Coffee: $1<br>Mocha: $2"},"type":"cafe"},{"place":{"lat":34.020421,"address":"3150 Ocean Park Blvd","lng":-118.452514},"meta":{"name":"The Coffee Bean & Tea Leaf","details":"Coffee: $2<br>Mocha: $5"},"type":"cafe"},{"place":{"lat":34.0326,"address":"1401 Montana Avenue","lng":-118.495125},"meta":{"name":"Peet's Coffee & Tea","details":"Coffee: $1<br>Mocha: $7"},"type":"cafe"},{"place":{"lat":34.0260096,"address":"1300 Wilshire Blvd","lng":-118.4895425},"meta":{"name":"La Monarca Bakery","details":"Coffee: $3<br>Mocha: $6"},"type":"cafe"},{"place":{"lat":34.0033827,"address":"2439 Main Street","lng":-118.4849192},"meta":{"name":"Peet's Coffee & Tea","details":"Coffee: $1<br>Mocha: $4"},"type":"cafe"},{"place":{"lat":34.0191001892,"address":"1149 3rd St","lng":-118.5},"meta":{"name":"Infuzion Caf√©","details":"Coffee: $2<br>Mocha: $4"},"type":"cafe"},{"place":{"lat":34.013739,"address":"1804 Lincoln Blvd","lng":-118.484652},"meta":{"name":"The Coffee Bean","details":"Coffee: $2<br>Mocha: $7"},"type":"cafe"},{"place":{"lat":34.0266990662,"address":"1260 15th St","lng":-118.486999512},"meta":{"name":"Cutting Board","details":"Coffee: $4<br>Mocha: $7"},"type":"cafe"},{"place":{"lat":34.0149002075,"address":"200 Santa Monica Blvd","lng":-118.497001648},"meta":{"name":"The Coffee Bean & Tea Leaf","details":"Coffee: $1<br>Mocha: $3"},"type":"cafe"},{"place":{"lat":34.01049,"address":"2127 Lincoln Blvd","lng":-118.480313},"meta":{"name":"Novel Cafe","details":"Coffee: $2<br>Mocha: $6"},"type":"cafe"},{"place":{"lat":34.0203018188,"address":"10117 Washington Blvd, Culver City, CA","lng":-118.400001526},"meta":{"name":"Conservatory For Coffee, Tea & Cocoa","details":"Coffee: $2<br>Mocha: $7"},"type":"cafe"},{"place":{"lat":34.005616,"address":"2209 Main St","lng":-118.486856},"meta":{"name":"Kafe K","details":"Coffee: $4<br>Mocha: $7"},"type":"cafe"},{"place":{"lat":34.0082015991,"address":"1802 Ocean Ave","lng":-118.490997314},"meta":{"name":"Cora's Coffee Shoppe","details":"Coffee: $1<br>Mocha: $3"},"type":"cafe"},{"place":{"lat":34.0158393,"address":"1356 3rd St Promenade","lng":-118.4964093},"meta":{"name":"Starbucks","details":"Coffee: $3<br>Mocha: $5"},"type":"cafe"},{"place":{"lat":34.032365,"address":"2461-A Santa Monica Blvd","lng":-118.475469},"meta":{"name":"Starbucks","details":"Coffee: $2<br>Mocha: $7"},"type":"cafe"},{"place":{"lat":34.0393574,"address":"11309 Mississippi Ave, Los Angeles, CA","lng":-118.4428186},"meta":{"name":"Coffee Tomo","details":"Coffee: $2<br>Mocha: $6"},"type":"cafe"},{"place":{"lat":34.0379019,"address":"11301 W Olympic Blvd, Los Angeles, CA","lng":-118.4414427},"meta":{"name":"Balconi Coffee Company","details":"Coffee: $2<br>Mocha: $3"},"type":"cafe"},{"place":{"lat":33.9910939,"address":"1331 Abbot Kinney Blvd, Venice, CA","lng":-118.466894},"meta":{"name":"Intelligentsia Coffee & Tea","details":"Coffee: $1<br>Mocha: $4"},"type":"cafe"},{"place":{"lat":33.9589004517,"address":"200 Culver Blvd, Playa Del Rey, CA","lng":-118.447998047},"meta":{"name":"Tanner's Coffee Co","details":"Coffee: $1<br>Mocha: $7"},"type":"cafe"},{"place":{"lat":34.018279,"address":"1201 3rd St Promenade","lng":-118.498708},"meta":{"name":"Starbucks Coffee","details":"Coffee: $2<br>Mocha: $5"},"type":"cafe"},{"place":{"lat":34.0137687,"address":"395 Santa Monica Pl","lng":-118.4942118},"meta":{"name":"Groundwork Coffee Company","details":"Coffee: $4<br>Mocha: $5"},"type":"cafe"},{"place":{"lat":33.9995994568,"address":"2901 Main St","lng":-118.481002808},"meta":{"name":"The Coffee Bean & Tea Leaf","details":"Coffee: $3<br>Mocha: $3"},"type":"cafe"},{"place":{"lat":34.040373,"address":"3105 Wilshire Blvd","lng":-118.472759},"meta":{"name":"Starbucks","details":"Coffee: $2<br>Mocha: $2"},"type":"cafe"},{"place":{"lat":34.029398,"address":"2425 Colorado Ave","lng":-118.472746},"meta":{"name":"Tully's Coffee","details":"Coffee: $3<br>Mocha: $6"},"type":"cafe"},{"place":{"lat":34.016478,"address":"1312 3rd Street Promenade","lng":-118.497535},"meta":{"name":"The Coffee Bean & Tea Leaf","details":"Coffee: $4<br>Mocha: $2"},"type":"cafe"}]