[{"place":{"lat":34.018203,"address":"1234 4th St.","lng":-118.497761},"meta":{"name":"Structure 1","details":"open 24 hours<br>8am - 6pm; first 2 hrs. free,<br>$1 ea additional 30 minutes;<br>$9 maximum daily; <br>entering after 6 pm; $5 flat rate<br>total capacity 338 spaces<br> "},"type":"lot"},{"place":{"lat":34.016861,"address":"1235 2nd St.","lng":-118.498889},"meta":{"name":"Structure 2","details":"open 24 hours<br>8am - 6pm; first 2 hrs. free,<br>$1 ea additional 30 minutes;<br>$9 maximum daily; <br>entering after 6 pm; $5 flat rate<br>total capacity 647 spaces"},"type":"lot"},{"place":{"lat":34.017061,"address":"1320 4th St.","lng":-118.496456},"meta":{"name":"Structure 3","details":"open 24 hours<br>8am - 6pm; first 2 hrs. free,<br>$1 ea additional 30 minutes;<br>$9 maximum daily; <br>entering after 6 pm; $5 flat rate<br>total capacity 339 spaces"},"type":"lot"},{"place":{"lat":34.015967,"address":"1321 2nd St.","lng":-118.497917},"meta":{"name":"Structure 4","details":"open 24 hours<br>8am - 6pm; first 2 hrs. free,<br>$1 ea additional 30 minutes;<br>$9 maximum daily; <br>entering after 6 pm; $5 flat rate<br>total capacity 652 spaces"},"type":"lot"},{"place":{"lat":34.015231,"address":"1440 4th St.","lng":-118.494303},"meta":{"name":"Structure 5","details":"open 24 hours<br>8am - 6pm; first 2 hrs. free,<br>$1 ea additional 30 minutes;<br>$9 maximum daily; <br>entering after 6 pm; $5 flat rate<br>total capacity 665 spaces"},"type":"lot"},{"place":{"lat":34.01444,"address":"Santa Monica Place Mall","lng":-118.49372},"meta":{"name":"Structure 7","details":"open 24 hours<br>8am - 6pm; first 2 hrs. free,<br>$1 ea additional 30 minutes;<br>$9 maximum daily; <br>entering after 6 pm; $5 flat rate<br>Corner of 4th &amp; Broadway"},"type":"lot"},{"place":{"lat":34.01289,"address":"Santa Monica Place Mall","lng":-118.49372},"meta":{"name":"Structure 8","details":"open 24 hours<br>8am - 6pm; first 2 hrs. free,<br>$1 ea additional 30 minutes;<br>$9 maximum daily; <br>entering after 6 pm; $5 flat rate<br>Corner of 2nd St. &amp; Colorado Ave."},"type":"lot"},{"place":{"lat":34.019575,"address":"1136 4th St.","lng":-118.499378},"meta":{"name":"Structure 9","details":"open 24 hours<br>8am - 6pm; first 2 hrs. free,<br>$1 ea additional 30 minutes;<br>$9 maximum daily; <br>entering after 6 pm; $5 flat rate<br>total capacity 294 spaces"},"type":"lot"},{"place":{"lat":34.01158,"address":"333 Civic Center Dr.","lng":-118.48997},"meta":{"name":"Civic Center","details":"Operates 24 hrs. daily<br>Enter at Civic Center Drive &amp; 4th St.<br>$1.50\/20 minutes; $9 maximum daily<br>Entering after 6 pm or weekends:  $3 flat rate<br>744 spaces total"},"type":"lot"},{"place":{"lat":34.019,"address":"601 Santa Monica Blvd.","lng":-118.49361},"meta":{"name":"Library","details":"Enter at 7th St., north of Santa Monica Blvd.<br>525 spaces total<br>8am - 11pm: First 15 minutes free;<br>$.50\/30 minutes; $10 maximum daily<br>Entering after 6 pm or weekends: flat rate $3"},"type":"lot"},{"place":{"lat":34.0193044597,"address":"1125 3rd St.","lng":-118.499836877},"meta":{"name":"Structure10","details":"82 metered spaces: 79 @ 3 hours<br>$.75 each hour; open 24 hours a day"},"type":"lot"},{"place":{"lat":34.0097205389,"address":"North of Pico Blvd. between Main St. &amp; 4th St., east side","lng":-118.488141548},"meta":{"name":"Civic Lot","details":"Operates 24 hrs. daily<br>$1.50\/20 minutes; $9 maximum daily<br>Entering after 6 pm or weekends:  $3 flat rate<br>"},"type":"lot"},{"place":{"lat":34.010806,"address":"1550\/1440 Pacific Coast Hwy.","lng":-118.497361},"meta":{"name":"Lot 1 North","details":"open 7:30am - 12am M-F;<br>7:30am - 1am Sat\/Sun<br>$8 per entry<br>total capacity 1129 spaces"},"type":"lot"},{"place":{"lat":34.0175748081,"address":"1060 Pacific Coast Hwy.","lng":-118.503927407},"meta":{"name":"Lot 4 North","details":"open 7am - 4 pm<br>$8 per entry<br>87 spaces total"},"type":"lot"},{"place":{"lat":34.0179351259,"address":"1030 Pacific Coast Hwy.","lng":-118.50436858},"meta":{"name":"Lot 5 North","details":"open 7am - 4 pm<br>$8 per entry<br>57 spaces total"},"type":"lot"},{"place":{"lat":34.009333,"address":"West end of Colorado Ave. on the Pier ","lng":-118.496389},"meta":{"name":"Pier Deck","details":"7:30 - 12am M-F: $7<br>7:30 - 1am Sat\/Sun: $8<br>total capacity 277 spaces"},"type":"lot"},{"place":{"lat":34.0188702322,"address":"950 Pacific Coast Hwy.","lng":-118.505541747},"meta":{"name":"Lot 6 North","details":"open 7am - 4 pm<br>$8 per entry<br>75 spaces total"},"type":"lot"},{"place":{"lat":34.0193707463,"address":"930 Pacific Coast Hwy.","lng":-118.506196},"meta":{"name":"Lot 7 North","details":"open 7am - 4 pm<br>$8 per entry<br>85 spaces total"},"type":"lot"},{"place":{"lat":34.021,"address":"810 Pacific Coast Hwy.","lng":-118.508333},"meta":{"name":"Lot 8 North","details":"open 7am - 4 pm<br>$8 per entry<br>214 spaces total"},"type":"lot"},{"place":{"lat":34.023312386,"address":"530 Pacific Coast Hwy.","lng":-118.511280472},"meta":{"name":"Lot 9 North","details":"open 7am - 4 pm<br>$8 per entry<br>79 spaces total"},"type":"lot"},{"place":{"lat":34.023972,"address":"445-415 Pacific Coast Hwy.","lng":-118.512472},"meta":{"name":"Beach House Lot","details":"open 7am - 5 pm $8 per entry<br>274 spaces total"},"type":"lot"},{"place":{"lat":34.0099541788,"address":"1640 (S-T) Appian Way","lng":-118.495048016},"meta":{"name":"Lot 1 South","details":"2 hour maximum parking<br>7 am - 4 pm<br>66 spaces total<br>"},"type":"lot"},{"place":{"lat":34.0090571462,"address":"1670 Appian Way","lng":-118.494109447},"meta":{"name":"Lot 2 South","details":"7 am - 4 pm<br>$7 weekends &amp; holidays;<br>$5 weekdays<br>63 spaces total"},"type":"lot"},{"place":{"lat":34.0075968885,"address":"1750 Appian Way","lng":-118.492572458},"meta":{"name":"Lot 3 South","details":"7am - 4pm<br> $7 weekends  &amp; holidays;<br>$5 weekdays<br>total capacity 120 spaces"},"type":"lot"},{"place":{"lat":34.003028,"address":"2030 Ocean Ave.","lng":-118.488639},"meta":{"name":"Lot 4 South","details":"7 am - 5 pm<br> $8 weekends  &amp; holidays;<br>$7 weekdays<br>short-term parking - 177 spaces<br>$1 per hour, two hour maximum<br>total capacity 1319 spaces"},"type":"lot"},{"place":{"lat":33.998833,"address":"2600 Barnard Way","lng":-118.484722},"meta":{"name":"Lot 5 South","details":"7 am - 5 pm<br> $8 weekends  &amp; holidays;<br>$7 weekdays<br>784 spaces total<br>short-term parking - 87 spaces<br>$1 per hour, two hour maximum<br>"},"type":"lot"},{"place":{"lat":34.0012600183,"address":"110 Hill St.","lng":-118.483533574},"meta":{"name":"Lot 9","details":"Enter from Kinney St., Hill St. or off of Main St. at Ashland Ave.<br>175 metered spaces: 165 @ 3 hours, 10 @ 10 hours<br>$1 per hour; open 24 hours<br>Change machine available at this location"},"type":"lot"},{"place":{"lat":33.9990350353,"address":"111 Hill St.","lng":-118.481299235},"meta":{"name":"Lot 10","details":"Enter from Hill St.<br>40 metered spaces: 37 @ 3 hours<br>$1 per hour; open 24 hours"},"type":"lot"},{"place":{"lat":34.0035983845,"address":"170 Hollister Ave.","lng":-118.485858714},"meta":{"name":"Lot 11","details":"Enter from Hollister Ave. or through entrance at 2934 Main St.<br>110 metered spaces: 95 @ 3 hours, 12 @ 10 hours<br>$1 per hour; open 24 hours<br>Change machine available at this location"},"type":"lot"},{"place":{"lat":34.004679,"address":"150 Strand St.","lng":-118.487009},"meta":{"name":"Lot 26","details":"Enter from Strand St.<br>15 metered spaces: 8 @ 3 hours, 6 @ 10 hours<br>$1 per hour; open 24 hours"},"type":"lot"},{"place":{"lat":34.01810833,"address":"1323 5th St.","lng":-118.4951389},"meta":{"name":"Lot 28","details":"27 spaces; open 24 hours<br>$1 per 30 min., $9 maximum"},"type":"lot"},{"place":{"lat":34.01795556,"address":"1320 5th St.","lng":-118.4953944},"meta":{"name":"Lot 27","details":"91 spaces; open 24 hours<br>$1 per 30 min., $9 maximum"},"type":"lot"},{"place":{"lat":34.0257371337,"address":"1217 Euclid St.","lng":-118.488941816},"meta":{"name":"Lot 7","details":"50 metered spaces total: <br>24 @ 3 hours, 24 @ 10 hours<br>$.75 each hour; open 24 hours"},"type":"lot"},{"place":{"lat":34.0284350224,"address":"1146 16th St. just north of Wilshire Blvd.","lng":-118.48762886},"meta":{"name":"Lot 8","details":"22 metered spaces: 21 @ 3 hours<br>$.75 each hour; open 24 hours<br>"},"type":"lot"},{"place":{"lat":34.0266032735,"address":"1211 14th St.","lng":-118.488115012},"meta":{"name":"Lot 12","details":"50 metered spaces: 11 @ 1 hour, 37 @ 3 hours<br>$.75 each hour; open 24 hours<br>"},"type":"lot"}]